Name,Latitude,Longitude,Diameter
Abbe,-57.30,175.20,66.0
Abbot,5.60,54.80,10.0
Abel,-34.50,87.30,122.0
Abenezra,-21.00,11.90,42.0
Abetti,19.90,27.70,65.0
Abul Wáfa,1.00,116.60,55.0
Abulfeda,-13.80,13.90,65.0
Acosta,-5.60,60.10,13.0
Adams,-31.90,68.20,66.0
Agatharchides,-19.80,-30.90,48.0
Agrippa,4.10,10.50,44.0
Airy,-18.10,5.70,36.0
Aitken,-16.80,173.40,135.0
Akis,20.00,-31.80,2.0
Alan,-10.90,-6.10,2.0
Al-Bakri,14.30,20.20,12.0
Albategnius,-11.70,4.30,114.0
Al-Biruni,17.90,92.50,77.0
Alden,-23.60,110.80,104.0
Alder,-48.60,-177.40,77.0
Aldrin,1.40,22.10,3.0
Alekhin,-68.20,-131.30,70.0
Alexander,40.30,13.50,81.0
Alfraganus,-5.40,19.00,20.0
Alhazen,15.90,71.80,32.0
Aliacensis,-30.60,5.20,79.0
Al-Khwarizmi,7.10,106.40,65.0
Almanon,-16.80,15.20,49.0
Al-Marrakushi,-10.40,55.80,8.0
Aloha,29.80,-53.90,3.0
Alpetragius,-16.00,-4.50,39.0
Alphonsus,-13.70,-3.20,108.0
Alter,18.70,-107.50,64.0
Ameghino,3.30,57.00,9.0
Amici,-9.90,-172.10,54.0
Ammonius,-8.50,-0.80,8.0
Amontons,-5.30,46.80,2.0
Amundsen,-84.30,85.60,101.0
Anaxagoras,73.40,-10.10,50.0
Anaximander,66.90,-51.30,67.0
Anaximenes,72.50,-44.50,80.0
Andel,-10.40,12.40,35.0
Anders,-41.30,-142.90,40.0
Anderson,15.80,171.10,109.0
Andersson,-49.70,-95.30,13.0
Andronov,-22.70,146.10,16.0
Ango,20.50,-32.30,1.0
Angström,29.90,-41.60,9.0
Ann,25.10,-0.10,3.0
Annegrit,29.40,-25.60,1.0
Ansgarius,-12.70,79.70,94.0
Antoniadi,-69.70,-172.00,143.0
Anuchin,-49.00,101.30,57.0
Anville,1.90,49.50,10.0
Apianus,-26.90,7.90,63.0
Apollo,-36.10,-151.80,537.0
Apollonius,4.50,61.10,53.0
Appleton,37.20,158.30,63.0
Arago,6.20,21.40,26.0
Aratus,23.60,4.50,10.0
Archimedes,29.70,-4.00,82.0
Archytas,58.70,5.00,31.0
Argelander,-16.50,5.80,34.0
Ariadaeus,4.60,17.30,11.0
Aristarchus,23.70,-47.40,40.0
Aristillus,33.90,1.20,55.0
Aristoteles,50.20,17.40,87.0
Armínski,-16.40,154.20,26.0
Armstrong,1.40,25.00,4.0
Arnold,66.80,35.90,94.0
Arrhenius,-55.60,-91.30,40.0
Artamonov,25.50,103.50,60.0
Artem'ev,10.80,-144.40,67.0
Artemis,25.00,-25.40,2.0
Artsimovich,27.60,-36.60,8.0
Aryabhata,6.20,35.10,22.0
Arzachel,-18.20,-1.90,96.0
Asada,7.30,49.90,12.0
Asclepi,-55.10,25.40,42.0
Ashbrook,-81.40,-112.50,156.0
Aston,32.90,-87.70,43.0
Atlas,46.70,44.40,87.0
Atwood,-5.80,57.70,29.0
Autolycus,30.70,1.50,39.0
Auwers,15.10,17.20,20.0
Auzout,10.30,64.10,32.0
Avery,-1.40,81.40,9.0
Avicenna,39.70,-97.20,74.0
Avogadro,63.10,164.90,139.0
Azophi,-22.10,12.70,47.0
Baade,-44.80,-81.80,55.0
Babakin,-20.80,123.30,20.0
Babbage,59.70,-57.10,143.0
Babcock,4.20,93.90,99.0
Back,1.10,80.70,35.0
Backlund,-16.00,103.00,75.0
Bacon,-51.00,19.10,69.0
Baillaud,74.60,37.50,89.0
Bailly,-66.50,-69.10,287.0
Baily,49.70,30.40,26.0
Balandin,-18.90,152.60,12.0
Balboa,19.10,-83.20,69.0
Baldet,-53.30,-151.10,55.0
Ball,-35.90,-8.40,41.0
Balmer,-20.30,69.80,138.0
Banachiewicz,5.20,80.10,92.0
Bancroft,28.00,-6.40,13.0
Banting,26.60,16.40,5.0
Barbier,-23.80,157.90,66.0
Barkla,-10.70,67.20,42.0
Barnard,-29.50,85.60,105.0
Barocius,-44.90,16.80,82.0
Barringer,-28.00,-149.70,68.0
Barrow,71.30,7.70,92.0
Bartels,24.50,-89.80,55.0
Bawa,-25.30,102.60,1.0
Bayer,-51.60,-35.00,47.0
Beals,37.30,86.50,48.0
Beaumont,-18.00,28.80,53.0
Becquerel,40.70,129.70,65.0
Becvár,-1.90,125.20,67.0
Beer,27.10,-9.10,9.0
Behaim,-16.50,79.40,55.0
Beijerinck,-13.50,151.80,70.0
Beketov,16.30,29.20,8.0
Béla,24.70,2.30,11.0
Bel'kovich,61.10,90.20,214.0
Bell,21.80,-96.40,86.0
Bellinsgauzen,-60.60,-164.60,63.0
Bellot,-12.40,48.20,17.0
Belopol'skiy,-17.20,-128.10,59.0
Belyaev,23.30,143.50,54.0
Benedict,4.40,141.50,14.0
Bergman,7.00,137.50,21.0
Bergstrand,-18.80,176.30,43.0
Berkner,25.20,-105.20,86.0
Berlage,-63.20,-162.80,92.0
Bernouilli,35.00,60.70,47.0
Berosus,33.50,69.90,74.0
Berzelius,36.60,50.90,50.0
Bessarion,14.90,-37.30,10.0
Bessel,21.80,17.90,15.0
Bettinus,-63.40,-44.80,71.0
Bhabha,-55.10,-164.50,64.0
Bianchini,48.70,-34.30,38.0
Biela,-54.90,51.30,76.0
Bilharz,-5.80,56.30,43.0
Billy,-13.80,-50.10,45.0
Bingham,8.10,115.10,33.0
Biot,-22.60,51.10,12.0
Birkeland,-30.20,173.90,82.0
Birkhoff,58.70,-146.10,345.0
Birmingham,65.10,-10.50,92.0
Birt,-22.40,-8.50,16.0
Bjerknes,-38.40,113.00,48.0
Black,-9.20,80.40,18.0
Blackett,-37.50,-116.10,141.0
Blagg,1.30,1.50,5.0
Blancanus,-63.80,-21.40,117.0
Blanchard,-58.50,-94.40,40.0
Blanchinus,-25.40,2.50,61.0
Blazhko,31.60,-148.00,54.0
Bobillier,19.60,15.50,6.0
Bobone,26.90,-131.80,31.0
Bode,6.70,-2.40,18.0
Boethius,5.60,72.30,10.0
Boguslawsky,-72.90,43.20,97.0
Bohnenberger,-16.20,40.00,33.0
Bohr,12.40,-86.60,71.0
Bok,-20.20,-171.60,45.0
Boltzmann,-74.90,-90.70,76.0
Bolyai,-33.60,125.90,135.0
Bombelli,5.30,56.20,10.0
Bondarenko,-17.80,136.30,30.0
Bonpland,-8.30,-17.40,60.0
Boole,63.70,-87.40,63.0
Borda,-25.10,46.60,44.0
Borel,22.30,26.40,4.0
Boris,30.60,-33.50,10.0
Borman,-38.80,-147.70,50.0
Born,-6.00,66.80,14.0
Boscovich,9.80,11.10,46.0
Bose,-53.50,-168.60,91.0
Boss,45.80,89.20,47.0
Bouguer,52.30,-35.80,22.0
Boussingault,-70.20,54.60,142.0
Bowditch,-25.00,103.10,40.0
Bowen,17.60,9.10,8.0
Boyle,-53.10,178.10,57.0
Brackett,17.90,23.60,8.0
Bragg,42.50,-102.90,84.0
Brashear,-73.80,-170.70,55.0
Brayley,20.90,-36.90,14.0
Bredikhin,17.30,-158.20,59.0
Breislak,-48.20,18.30,49.0
Brenner,-39.00,39.30,97.0
Brewster,23.30,34.70,10.0
Brianchon,75.00,-86.20,134.0
Bridgman,43.50,137.10,80.0
Briggs,26.50,-69.10,37.0
Brisbane,-49.10,68.50,44.0
Bronk,26.10,-134.50,64.0
Brouwer,-36.20,-126.00,158.0
Brown,-46.40,-17.90,34.0
Bruce,1.10,0.40,6.0
Brunner,-9.90,90.90,53.0
Buch,-38.80,17.70,53.0
Buffon,-40.40,-133.40,106.0
Buisson,-1.40,112.50,56.0
Bullialdus,-20.70,-22.20,60.0
Bunsen,41.40,-85.30,52.0
Burckhardt,31.10,56.50,56.0
Bürg,45.00,28.20,39.0
Burnham,-13.90,7.30,24.0
Büsching,-38.00,20.00,52.0
Butlerov,12.50,-108.70,40.0
Buys-Ballot,20.80,174.50,55.0
Byrd,85.30,9.80,93.0
Byrgius,-24.70,-65.30,87.0
C. Herschel,34.50,-31.20,13.0
C. Mayer,63.20,17.30,38.0
Cabannes,-60.90,-169.60,80.0
Cabeus,-84.90,-35.50,98.0
Cajal,12.60,31.10,9.0
Cajori,-47.40,168.80,70.0
Calippus,38.90,10.70,32.0
Cameron,6.20,45.90,10.0
Campanus,-28.00,-27.80,48.0
Campbell,45.30,151.40,219.0
Cannizzaro,55.60,-99.60,56.0
Cannon,19.90,81.40,56.0
Cantor,38.20,118.60,0.0
Capella,-7.50,35.00,90.0
Capuanus,-34.10,-26.70,59.0
Cardanus,13.20,0.00,49.0
Carlini,33.70,-24.10,10.0
Carlos,24.90,2.30,4.0
Carmichael,19.60,40.40,20.0
Carnot,52.30,-143.50,126.0
Carol,8.50,122.30,117.0
Carpenter,69.40,-50.90,59.0
Carrel,10.70,26.70,15.0
Carrillo,-2.20,80.90,16.0
Carrington,44.00,62.10,30.0
Cartan,4.20,59.30,15.0
Carver,-43.00,126.90,59.0
Casatus,-72.80,-29.50,108.0
Cassegrain,-52.40,113.50,55.0
Cassini,40.20,4.60,56.0
Catalán,-45.70,-87.30,25.0
Catharina,-18.10,23.40,104.0
Cauchy,9.60,38.60,12.0
Cavalerius,5.10,-66.80,57.0
Cavendish,-24.50,-53.70,56.0
Caventou,29.80,-29.40,3.0
Cayley,4.00,15.10,14.0
Celsius,-34.10,20.10,36.0
Censorinus,-0.40,32.70,3.0
Cepheus,40.80,45.80,39.0
Chacornac,29.80,31.70,51.0
Chadwick,-52.70,-101.30,30.0
Chaffee,-38.80,-153.90,49.0
Challis,79.50,9.20,55.0
Chalonge,-21.20,-117.30,30.0
Chamberlin,-58.90,95.70,58.0
Champollion,37.40,175.20,58.0
Chandler,43.80,171.50,85.0
Chang Heng,19.00,112.20,43.0
Chang-Ngo,-12.70,-2.10,3.0
Chant,-40.00,-109.20,33.0
Chaplygin,-6.20,150.30,137.0
Chapman,50.40,-100.70,71.0
Chappe,-61.20,-91.50,59.0
Chappell,54.70,-177.00,80.0
Charles,29.90,-26.40,1.0
Charlier,36.60,-131.50,99.0
Chaucer,3.70,-140.00,45.0
Chauvenet,-11.50,137.00,81.0
Chebyshev,-33.70,-133.10,178.0
Chernyshev,47.30,174.20,58.0
Chevallier,44.90,51.20,52.0
Ching-Te,20.00,30.00,4.0
Chladni,4.00,1.10,13.0
Chrétien,-45.90,162.90,88.0
Christel,24.50,11.00,2.0
Cichus,-33.30,-21.10,40.0
Clairaut,-47.70,13.90,75.0
Clark,-38.40,118.90,49.0
Clausius,-36.90,-43.80,24.0
Clavius,-58.80,-14.10,245.0
Cleomedes,27.70,56.00,125.0
Cleostratus,60.40,-77.00,62.0
Clerke,21.70,29.80,6.0
Coblentz,-37.90,126.10,33.0
Cockcroft,31.30,-162.60,93.0
Collins,1.30,23.70,2.0
Colombo,-15.10,45.80,76.0
Compton,55.30,103.80,182.0
Comrie,23.30,-112.70,59.0
Comstock,21.80,-121.50,72.0
Condon,1.90,60.40,34.0
Condorcet,12.10,69.60,74.0
Congreve,-0.20,-167.30,57.0
Conon,21.60,2.00,21.0
Cook,-17.50,48.90,46.0
Cooper,52.90,175.60,36.0
Copernicus,9.70,-20.10,107.0
Cori,-50.60,-151.90,65.0
Coriolis,0.10,171.80,78.0
Couder,-4.80,-92.40,21.0
Coulomb,54.70,-114.60,89.0
Courtney,25.10,-30.80,1.0
Cremona,67.50,-90.60,85.0
Crile,14.20,46.00,9.0
Crocco,-47.50,150.20,75.0
Crommelin,-68.10,-146.90,94.0
Crookes,-10.30,-164.50,49.0
Crozier,-13.50,50.80,22.0
Crüger,-16.70,-66.80,45.0
Ctesibius,0.80,118.70,36.0
Curie,-22.90,91.00,151.0
Curtis,14.60,56.60,2.0
Curtius,-67.20,4.40,95.0
Cusanus,72.00,70.80,63.0
Cuvier,-50.30,9.90,75.0
Cyrano,-20.50,157.70,80.0
Cyrillus,-13.20,24.00,98.0
Cysatus,-66.20,-6.10,48.0
da Vinci,9.10,45.00,37.0
Daedalus,-5.90,179.40,93.0
Dag,18.70,5.30,0.0
Daguerre,-11.90,33.60,46.0
Dale,-9.60,82.90,22.0
D'Alembert,50.80,163.90,248.0
Dalton,17.10,-84.30,60.0
Daly,5.70,59.60,17.0
Damoiseau,-4.80,-61.10,36.0
Daniell,35.30,31.10,29.0
Danjon,-11.40,124.00,71.0
Dante,25.50,180.00,54.0
Darney,-14.50,-23.50,15.0
D'Arrest,2.30,14.70,30.0
D'Arsonval,-10.30,124.60,28.0
Darwin,-20.20,-69.50,120.0
Das,-26.60,-136.80,38.0
Daubrée,15.70,14.70,14.0
Davisson,-37.50,-174.60,87.0
Davy,-11.80,-8.10,34.0
Dawes,17.20,26.40,18.0
Dawson,-67.40,-134.70,45.0
De Forest,-77.30,-162.10,57.0
de Gasparis,-25.90,-50.70,30.0
De La Rue,59.10,52.30,134.0
De Moraes,49.50,143.20,53.0
De Morgan,3.30,14.90,10.0
De Roy,-55.30,-99.10,43.0
De Sitter,80.10,39.60,64.0
De Vico,-19.70,-60.20,20.0
De Vries,-19.90,-176.70,59.0
Debes,29.50,51.70,30.0
Debye,49.60,-176.20,142.0
Dechen,46.10,-68.20,12.0
Delambre,-1.90,17.50,51.0
Delaunay,-22.20,2.50,46.0
Delia,-10.90,-6.10,2.0
Delisle,29.90,-34.60,25.0
Dellinger,-6.80,140.60,81.0
Delmotte,27.10,60.20,32.0
Delporte,-16.00,121.60,45.0
Deluc,-55.00,-2.80,46.0
Dembowski,2.90,7.20,26.0
Democritus,62.30,35.00,39.0
Demonax,-77.90,60.80,128.0
Denning,-16.40,142.60,44.0
Desargues,70.20,-73.30,85.0
Descartes,-11.70,15.70,48.0
Deseilligny,21.10,20.60,6.0
Deslandres,-33.10,-4.80,256.0
Deutsch,24.10,110.50,66.0
Dewar,-2.70,165.50,50.0
Diana,14.30,35.70,50.0
Diderot,-20.40,121.50,20.0
Dionysius,2.80,17.30,18.0
Diophantus,27.60,-34.30,17.0
Dirichlet,11.10,-151.40,47.0
Dobrovol'skiy,-12.80,129.70,38.0
Doerfel,-69.10,-107.90,68.0
Dollond,-10.40,14.40,11.0
Donati,-20.70,5.20,36.0
Donna,7.20,38.30,2.0
Donner,-31.40,98.00,58.0
Doppelmayer,-28.50,-41.40,63.0
Doppler,-12.60,-159.60,110.0
Douglass,35.90,-122.40,49.0
Dove,-46.70,31.50,30.0
Draper,17.60,-21.70,8.0
Drebbel,-40.90,-49.00,30.0
Dreyer,10.00,96.90,61.0
Drude,-38.50,-91.80,24.0
Dryden,-33.00,-155.20,51.0
Drygalski,-79.30,-84.90,149.0
Dubyago,4.40,70.00,51.0
Dufay,5.50,169.50,39.0
Dugan,64.20,103.30,50.0
Dunér,44.80,179.50,62.0
Dunthorne,-30.10,-31.60,15.0
Dyson,61.30,-121.20,63.0
Dziewulski,21.20,98.90,63.0
Eckert,17.30,58.30,2.0
Eddington,21.30,-72.20,118.0
Edison,25.00,99.10,62.0
Edith,-25.80,102.30,8.0
Egede,48.70,10.60,37.0
Ehrlich,40.90,-172.40,30.0
Eichstadt,-22.60,-78.30,49.0
Eijkman,-63.10,-143.00,54.0
Eimmart,24.00,64.80,46.0
Einstein,16.30,-88.70,198.0
Einthoven,-4.90,109.60,69.0
Elger,-35.30,-29.80,21.0
Ellerman,-25.30,-120.10,47.0
Ellison,55.10,-107.50,36.0
Elmer,-10.10,84.10,16.0
Elvey,8.80,-100.50,74.0
Emden,63.30,-177.30,111.0
Encke,4.60,-36.60,28.0
Endymion,53.90,57.00,123.0
Engel'gardt (Engelhardt),5.70,-159.00,43.0
Eötvös,-35.50,133.80,99.0
Epigenes,67.50,-4.60,55.0
Epimenides,-40.90,-30.20,27.0
Eppinger,-9.40,-25.70,6.0
Eratosthenes,14.50,-11.30,58.0
Erro,5.70,98.50,61.0
Esclangon,21.50,42.10,15.0
Esnault-Pelterie,47.70,-141.40,79.0
Espin,28.10,109.10,75.0
Euclides,-7.40,-29.50,11.0
Euctemon,76.40,31.30,62.0
Eudoxus,44.30,16.30,67.0
Euler,23.30,-29.20,27.0
Evans,-9.50,-133.50,67.0
Evdokimov,34.80,-153.00,50.0
Evershed,35.70,-159.50,66.0
Ewen,7.70,121.40,3.0
Fabbroni,18.70,29.20,10.0
Fabricius,-42.90,42.00,78.0
Fabry,42.90,100.70,184.0
Fahrenheit,13.10,61.70,6.0
Fairouz,-26.10,102.90,3.0
Falcon,20.40,30.30,0.0
Faraday,-42.40,8.70,69.0
Faustini,-87.30,77.00,39.0
Fauth,6.30,-20.10,12.0
Faye,-21.40,3.90,36.0
Fechner,-59.00,124.90,63.0
Fedorov,28.20,-37.00,6.0
Felix,28.20,-37.00,6.0
Fényi,-44.90,-105.10,38.0
Feoktistov,30.90,140.70,23.0
Fermat,-22.60,19.80,38.0
Fermi,-19.30,122.60,183.0
Fernelius,-38.10,4.90,65.0
Fersman,18.70,-126.00,151.0
Fesenkov,-23.20,135.10,35.0
Feuillée,27.40,-9.40,9.0
Finsch,23.60,21.30,4.0
Finsen,-42.00,-177.90,72.0
Firmicus,7.30,63.40,56.0
Firsov,4.50,112.20,51.0
Fischer,8.00,142.40,30.0
Fitzgerald,27.50,-171.70,110.0
Fizeau,-58.60,-133.90,111.0
Flammarion,-3.40,-3.70,74.0
Flamsteed,-4.50,-44.30,20.0
Fleming,15.00,109.60,106.0
Florensky,25.30,131.50,0.0
Focas,-33.70,-93.80,22.0
Fontana,-16.10,-56.60,31.0
Fontenelle,63.40,-18.90,38.0
Foster,23.70,-141.50,33.0
Foucault,50.40,-39.70,23.0
Fourier,-30.30,-53.00,51.0
Fowler,42.30,-145.00,146.0
Fox,0.50,98.20,24.0
Fra Mauro,-6.10,-17.00,101.0
Fracastorius,-21.50,33.20,112.0
Franck,22.60,35.50,12.0
Franklin,38.80,47.70,56.0
Franz,16.60,40.20,25.0
Fraunhofer,-39.50,59.10,56.0
Fredholm,18.40,46.50,14.0
Freud,25.80,-52.30,2.0
Freundlich,25.00,171.00,85.0
Fridman,-12.60,-126.00,102.0
Froelich,80.30,-109.70,58.0
Frost,37.70,-118.40,75.0
Fryxell,-21.30,-101.40,18.0
Furnerius,-36.00,60.60,135.0
G. Bond,32.40,36.20,20.0
Gadomski,36.40,-147.30,65.0
Gagarin,-20.20,149.20,265.0
Galen,21.90,5.00,10.0
Galilaei,10.50,-62.70,15.0
Galle,55.90,22.30,21.0
Galois,-14.20,-151.90,222.0
Galvani,49.60,-84.60,80.0
Gambart,1.00,-15.20,25.0
Gamow,65.30,145.30,129.0
Ganskiy (Hansky),-9.70,97.00,43.0
Ganswindt,-79.60,110.30,74.0
Garavito,-47.50,156.70,74.0
Gardner,17.70,33.80,18.0
Gärtner,59.10,34.60,115.0
Gassendi,-17.60,-40.10,101.0
Gaston,30.90,-34.00,2.0
Gaudibert,-10.90,37.80,34.0
Gauricus,-33.80,-12.60,79.0
Gauss,35.70,79.00,177.0
Gavrilov,17.40,130.90,60.0
Gay-Lussac,13.90,-20.80,26.0
Geber,-19.40,13.90,44.0
Geiger,-14.60,158.50,34.0
Geissler,-2.60,76.50,16.0
Geminus,34.50,56.70,85.0
Gemma Frisius,-34.20,13.30,87.0
Gerard,44.50,-80.00,90.0
Gerasimovich,-22.90,-122.60,86.0
Gernsback,-36.50,99.70,48.0
Gibbs,-18.40,84.30,76.0
Gilbert,-3.20,76.00,112.0
Gill,-63.90,75.90,66.0
Ginzel,14.30,97.40,55.0
Gioja,83.30,2.00,41.0
Giordano Bruno,35.90,102.80,22.0
Glaisher,13.20,49.50,15.0
Glauber,11.50,142.60,15.0
Glazenap,-1.60,137.60,43.0
Glushko,8.40,-77.60,43.0
Goclenius,-10.00,45.00,72.0
Goddard,14.80,89.00,89.0
Godin,1.80,10.20,34.0
Goldschmidt,73.20,-3.80,113.0
Golgi,27.80,-60.00,5.0
Golitsyn,-25.10,-105.00,36.0
Golovin,39.90,161.10,37.0
Goodacre,-32.70,14.10,46.0
Gould,-19.20,-17.20,34.0
Grace,14.20,35.90,1.0
Grachev,-3.70,-108.20,35.0
Graff,-42.40,-88.60,36.0
Grave,-17.10,150.30,40.0
Greaves,13.20,52.70,13.0
Green,4.10,132.90,65.0
Gregory,2.20,127.20,67.0
Grigg,12.90,-129.40,36.0
Grimaldi,-5.50,-68.30,172.0
Grissom,-47.00,-147.40,58.0
Grotrian,-66.50,128.30,37.0
Grove,40.30,32.90,28.0
Gruemberger,-66.90,-10.00,93.0
Gruithuisen,32.90,-39.70,15.0
Guericke,-11.50,-14.10,63.0
Guillaume,45.40,-173.40,57.0
Gullstrand,45.20,-129.30,43.0
Gum,-40.40,88.60,54.0
Gutenberg,-8.60,41.20,74.0
Guthnick,-47.70,-93.90,36.0
Guyot,11.40,117.50,92.0
Gyldén,-5.30,0.30,47.0
H. G. Wells,40.70,122.80,114.0
Hagecius,-59.80,46.60,76.0
Hagen,-48.30,135.10,55.0
Hahn,31.30,73.60,84.0
Haidinger,-39.20,-25.00,22.0
Hainzel,-41.30,-33.50,70.0
Haldane,-1.70,84.10,37.0
Hale,-74.20,90.80,83.0
Hall,33.70,37.00,35.0
Halley,-8.00,5.70,36.0
Hamilton,-42.80,84.70,57.0
Hanno,-56.30,71.20,56.0
Hansen,14.00,72.50,39.0
Hansteen,-11.50,-52.00,44.0
Harden,5.50,143.50,15.0
Harding,43.50,-71.70,22.0
Haret,-58.40,-175.60,29.0
Hargreaves,-2.20,64.00,16.0
Harkhebi,39.60,98.30,237.0
Harold,-10.90,-6.00,2.0
Harpalus,52.60,-43.40,39.0
Harriot,33.10,114.30,56.0
Hartmann,3.20,135.30,61.0
Hartwig,-6.10,-80.50,79.0
Harvey,19.50,-146.50,60.0
Hase,-29.40,62.50,83.0
Hatanaka,29.70,-121.50,26.0
Hausen,-65.00,-88.10,167.0
Hayford,12.70,-176.40,27.0
Hayn,64.70,85.20,87.0
Healy,32.80,-110.50,38.0
Heaviside,-10.40,167.10,165.0
Hecataeus,-21.80,79.40,167.0
Hédervári,-81.80,84.00,69.0
Hedin,2.00,-76.50,150.0
Heinrich,24.80,-15.30,6.0
Heinsius,-39.50,-17.70,64.0
Heis,32.40,-31.90,14.0
Helberg,22.50,-102.20,62.0
Helicon,40.40,-23.10,24.0
Hell,-32.40,-7.80,33.0
Helmert,-7.60,87.60,26.0
Helmholtz,-68.10,64.10,94.0
Henderson,4.80,152.10,47.0
Hendrix,-46.60,-159.20,18.0
Henry,-24.00,-56.80,41.0
Henry Fréres,-23.50,-58.90,42.0
Henyey,13.50,-151.60,63.0
Heraclitus,-49.20,6.20,90.0
Hercules,46.70,39.10,69.0
Herigonius,-13.30,-33.90,15.0
Hermann,-0.90,-57.00,15.0
Hermite,86.00,-89.90,104.0
Herodotus,23.20,-49.70,34.0
Heron (Hero),0.70,119.80,24.0
Herschel,-5.70,-2.10,40.0
Hertz,13.40,104.50,90.0
Hertzsprung,2.60,-129.20,591.0
Hesiodus,-29.40,-16.30,42.0
Hess,-54.30,174.60,88.0
Hevelius,2.20,-67.60,115.0
Heymans,75.30,-144.10,50.0
Heyrovsky,-39.60,-95.30,16.0
Hilbert,-17.90,108.20,151.0
Hill,20.90,40.80,16.0
Hind,-7.90,7.40,29.0
Hippalus,-24.80,-30.20,57.0
Hipparchus,-5.10,5.20,138.0
Hippocrates,70.70,-145.90,60.0
Hirayama,-6.10,93.50,132.0
Hoffmeister,15.20,136.90,45.0
Hogg,33.60,121.90,38.0
Hohmann,-17.90,-94.10,16.0
Holden,-19.10,62.50,47.0
Holetschek,-27.60,150.90,38.0
Hommel,-54.70,33.80,126.0
Hooke,41.20,54.90,36.0
Hopmann,-50.80,160.30,88.0
Hornsby,23.80,12.50,3.0
Horrebow,58.70,-40.80,24.0
Horrocks,-4.00,5.90,30.0
Hortensius,6.50,-28.00,14.0
Houtermans,-9.40,87.20,29.0
Houzeau,-17.10,-123.50,71.0
Hubble,22.10,86.90,80.0
Huggins,-41.10,-1.40,65.0
Humason,30.70,-56.60,4.0
Humboldt,-27.00,80.90,189.0
Hume,-4.70,90.40,23.0
Hutton,37.30,168.70,50.0
Huxley,20.20,-4.50,4.0
Hyginus,7.80,6.30,9.0
Hypatia,-4.30,22.60,40.0
Ian,25.70,-0.40,1.0
Ibn Battuta,-6.90,50.40,11.0
Ibn Firnas,6.80,122.30,89.0
Ibn Yunus,14.10,91.10,58.0
Ibn-Rushd,-11.70,21.70,32.0
Icarus,-5.30,-173.20,96.0
Ideler,-49.20,22.30,38.0
Idel'son,-81.50,110.90,60.0
Il'in,-17.80,-97.50,13.0
Ina,-49.20,22.30,38.0
Ingalls,26.40,-153.10,37.0
Inghirami,-47.50,-68.80,91.0
Innes,27.80,119.20,42.0
Ioffe,-14.40,-129.20,86.0
Isabel,28.20,-34.10,1.0
Isaev,-17.50,147.50,90.0
Isidorus,-8.00,33.50,42.0
Isis,18.90,27.50,1.0
Ivan,26.90,-43.30,4.0
Izsak,-23.30,117.10,30.0
J. Herschel,62.00,-42.00,165.0
Jackson,22.40,-163.10,71.0
Jacobi,-56.70,11.40,68.0
Jansen,13.50,28.70,23.0
Jansky,8.50,89.50,72.0
Janssen,-45.40,40.30,199.0
Jarvis,-34.90,-148.90,38.0
Jeans,-55.80,91.40,79.0
Jehan,20.70,-31.90,5.0
Jenkins,0.30,78.10,38.0
Jenner,-42.10,95.90,71.0
Jerik,18.50,27.60,1.0
Joliot,25.80,93.10,164.0
Jomo,24.40,-1.60,7.0
José,-12.70,-1.60,2.0
Joule,27.30,-144.20,96.0
Joy,25.00,6.60,5.0
Jules Verne,-35.00,147.00,143.0
Julienne,26.00,3.20,2.0
Julius Caesar,9.00,15.40,90.0
Kaiser,-36.50,6.50,52.0
Kamerlingh Onnes,15.00,-115.80,66.0
Kane,63.10,26.10,54.0
Kant,-10.60,20.10,33.0
Kao,-6.70,87.60,34.0
Kapteyn,-10.80,70.60,49.0
Karima,-25.90,103.00,3.0
Karpinskiy,73.30,166.30,92.0
Karrer,-52.10,-141.80,51.0
Kasper,8.30,122.10,12.0
Kästner,-6.80,78.50,108.0
Katchalsky,5.90,116.10,32.0
Kathleen,5.90,116.10,32.0
Kearons,-11.40,-112.60,23.0
Keeler,-10.20,161.90,160.0
Kekulé,16.40,-138.10,94.0
Keldysh,51.20,43.60,33.0
Kepínski,28.80,126.60,31.0
Kepler,8.10,-38.00,31.0
Khvol'son,-13.80,111.40,54.0
Kibal'chich,3.00,-146.50,92.0
Kidinnu,35.90,122.90,56.0
Kies,-26.30,-22.50,45.0
Kiess,-6.40,84.00,63.0
Kimura,-57.10,118.40,28.0
Kinau,-60.80,15.10,41.0
King,5.00,120.50,76.0
Kira,-17.60,132.80,3.0
Kirch,39.20,-5.60,11.0
Kircher,-67.10,-45.30,72.0
Kirchhoff,30.30,38.80,24.0
Kirkwood,68.80,-156.10,67.0
Klaproth,-69.80,-26.00,119.0
Klein,-12.00,2.60,44.0
Kleymenov,-32.40,-140.20,55.0
Klute,37.20,-141.30,75.0
Knox-Shaw,5.30,80.20,12.0
Koch,-42.80,150.10,95.0
Kohlschütter,14.40,154.00,53.0
Kolhörster,11.20,-114.60,97.0
Komarov,24.70,152.50,78.0
Kondratyuk,-14.90,115.50,108.0
König,-24.10,-24.60,23.0
Konoplev,-28.50,-125.50,25.0
Konstantinov,19.80,158.40,66.0
Kopff,-17.40,-89.60,41.0
Korolev,-4.00,-157.40,437.0
Kosberg,-20.20,149.60,15.0
Kostinskiy,14.70,118.80,75.0
Kovalevskaya,30.80,-129.60,115.0
Koval'skij,-21.90,101.00,49.0
Krafft,16.60,-72.60,51.0
Kramarov,-2.30,-98.80,20.0
Kramers,53.60,-127.60,61.0
Krasnov,-29.90,-79.60,40.0
Krasovskiy,3.90,-175.50,59.0
Kreiken,-9.00,84.60,23.0
Krieger,29.00,-45.60,22.0
Krishna,24.50,11.30,3.0
Krogh,9.40,65.70,19.0
Krusenstern,-26.20,5.90,47.0
Krylov,35.60,-165.80,49.0
Kugler,-53.80,103.70,65.0
Kuiper,-9.80,-22.70,6.0
Kulik,42.40,-154.50,58.0
Kundt,-11.50,-11.50,10.0
Kunowsky,3.20,-32.50,18.0
Kuo Shou Ching,8.40,-133.70,34.0
Kurchatov,38.30,142.10,106.0
La Caille,-23.80,1.10,67.0
La Condamine,53.40,-28.20,37.0
La Pérouse,-10.70,76.30,77.0
Lacchini,41.70,-107.50,58.0
Lacroix,-37.90,-59.00,37.0
Lade,-1.30,10.10,55.0
Lagalla,-44.60,-22.50,85.0
Lagrange,-32.30,-72.80,225.0
Lalande,-4.40,-8.60,24.0
Lallemand,-14.30,-84.10,18.0
Lamarck,-22.90,-69.80,100.0
Lamb,-42.90,100.10,106.0
Lambert,25.80,-21.00,30.0
Lamé,-14.70,64.50,84.0
Lamèch,42.70,13.10,13.0
Lamont,4.40,23.70,106.0
Lampland,-31.00,131.00,65.0
Landau,41.60,-118.10,214.0
Lander,-15.30,131.80,40.0
Landsteiner,31.30,-14.80,6.0
Lane,-9.50,132.00,55.0
Langemak,-10.30,118.70,97.0
Langevin,44.30,162.70,58.0
Langley,51.10,-86.30,59.0
Langmuir,-35.70,-128.40,91.0
Langrenus,-8.90,61.10,127.0
Lansberg,-0.30,-26.60,38.0
Larmor,32.10,-179.70,97.0
Lassell,-15.50,-7.90,23.0
Laue,28.00,-96.70,87.0
Lauritsen,-27.60,96.10,52.0
Lavoisier,38.20,-81.20,70.0
Lawrence,7.40,43.20,24.0
Le Gentil,-74.60,-75.70,128.0
Le Monnier,26.60,30.60,60.0
Le Verrier,40.30,-20.60,20.0
Leakey,-3.20,37.40,12.0
Leavitt,-44.80,-139.30,66.0
Lebedev,-47.30,107.80,102.0
Lebedinskiy,8.30,-164.30,62.0
Lebesgue,-5.10,89.00,11.0
Lee,-30.70,-40.70,41.0
Leeuwenhoek,-29.30,-178.70,125.0
Legendre,-28.90,70.20,78.0
Lehmann,-40.00,-56.00,53.0
Leibnitz,-38.30,179.20,245.0
Lemaître,-61.20,-149.60,91.0
Lents (Lenz),2.80,-102.10,21.0
Leonov,19.00,148.20,33.0
Lepaute,-33.30,-33.60,16.0
Letronne,-10.80,-42.50,116.0
Leucippus,29.10,-116.00,56.0
Leuschner,1.80,-108.80,49.0
Levi-Civita,-23.70,143.40,121.0
Lewis,-18.50,-113.80,42.0
Lexell,-35.80,-4.20,62.0
Ley,42.20,154.90,79.0
Licetus,-47.10,6.70,74.0
Lichtenberg,31.80,-67.70,20.0
Lick,12.40,52.70,31.0
Liebig,-24.30,-48.20,37.0
Lilius,-54.50,6.20,61.0
Linda,30.70,-33.40,1.0
Lindbergh,-5.40,52.90,12.0
Lindblad,70.40,-98.80,66.0
Lindenau,-32.30,24.90,53.0
Lindsay,-7.00,13.00,32.0
Linné,27.70,11.80,2.0
Liouville,2.60,73.50,16.0
Lippershey,-25.90,-10.30,6.0
Lippmann,-56.00,-114.90,160.0
Lipskiy,-2.20,-179.50,80.0
Litke (Lütke),-16.80,123.10,39.0
Littrow,21.50,31.40,30.0
Lobachevskiy,9.90,112.60,84.0
Lockyer,-46.20,36.70,34.0
Lodygin,-17.70,-146.80,62.0
Loewy,-22.70,-32.80,24.0
Lohrmann,-0.50,-67.20,30.0
Lohse,-13.70,60.20,41.0
Lomonosov,27.30,98.00,92.0
Longomontanus,-49.60,-21.80,157.0
Lorentz,32.60,-95.30,312.0
Louise,28.50,-34.20,0.0
Louville,44.00,-46.00,36.0
Love,-6.30,129.00,84.0
Lovelace,82.30,-106.40,54.0
Lovell,-36.80,-141.90,34.0
Lowell,-12.90,-103.10,66.0
Lubbock,-3.90,41.80,13.0
Lubiniezky,-17.80,-23.80,43.0
Lucian,14.30,36.70,7.0
Lucretius,-8.20,-120.80,63.0
Ludwig,-7.70,97.40,23.0
Lundmark,-39.70,152.50,106.0
Luther,33.20,24.10,9.0
Lyapunov,26.30,89.30,66.0
Lyell,13.60,40.60,32.0
Lyman,-64.80,163.60,84.0
Lyot,-49.80,84.50,132.0
Mach,18.50,-149.30,180.0
MacLaurin,-1.90,68.00,50.0
MacLear,10.50,20.10,20.0
MacMillan,24.20,-7.80,7.0
Macrobius,21.30,46.00,64.0
Mädler,-11.00,29.80,27.0
Maestlin,4.90,-40.60,7.0
Magelhaens,-11.90,44.10,40.0
Maginus,-50.50,-6.30,194.0
Main,80.80,10.10,46.0
Mairan,41.60,-43.40,40.0
Maksutov,-40.50,-168.70,83.0
Malapert,-84.90,12.90,69.0
Mallet,-45.40,54.20,58.0
Malyy,21.90,105.30,41.0
Mandel'shtam,5.40,162.40,197.0
Manilius,14.50,9.10,38.0
Manners,4.60,20.00,15.0
Manuel,24.50,11.30,0.0
Manzinus,-67.70,26.80,98.0
Maraldi,19.40,34.90,39.0
Marci,22.60,-167.00,25.0
Marco Polo,15.40,-2.00,28.0
Marconi,-9.60,145.10,73.0
Marinus,-39.40,76.50,58.0
Mariotte,-28.50,-139.10,65.0
Marius,11.90,-50.80,41.0
Markov,53.40,-62.70,40.0
Marth,-31.10,-29.30,6.0
Mary,18.90,27.40,1.0
Maskelyne,2.20,30.10,23.0
Mason,42.60,30.50,33.0
Maunder,-14.60,-93.80,55.0
Maupertuis,49.60,-27.30,45.0
Maurolycus,-42.00,14.00,114.0
Maury,37.10,39.60,17.0
Mavis,29.80,-26.40,1.0
Maxwell,30.20,98.90,107.0
McAdie,2.10,92.10,45.0
McAuliffe,-33.00,-148.90,19.0
McClure,-15.30,50.30,23.0
McDonald,30.40,-20.90,7.0
McKellar,-15.70,-170.80,51.0
McLaughlin,47.10,-92.90,79.0
McMath,17.30,-165.60,86.0
McNair,-35.70,-147.30,29.0
McNally,22.60,-127.20,47.0
Mechnikov,-11.00,-149.00,60.0
Mee,-43.70,-35.30,126.0
Mees,13.60,-96.10,50.0
Meggers,24.30,123.00,52.0
Meitner,-10.50,112.70,87.0
Melissa,8.10,121.80,18.0
Mendel,-48.80,-109.40,138.0
Mendeleev,5.70,140.90,313.0
Menelaus,16.30,16.00,26.0
Menzel,3.40,36.90,3.0
Mercator,-29.30,-26.10,46.0
Mercurius,46.60,66.20,67.0
Merrill,75.20,-116.30,57.0
Mersenius,-21.50,-49.20,84.0
Meshcherskiy,12.20,125.50,65.0
Messala,39.20,60.50,125.0
Messier,-1.90,47.60,11.0
Metius,-40.30,43.30,87.0
Meton,73.60,18.80,130.0
Mezentsev,72.10,-128.70,89.0
Michael,25.10,0.20,4.0
Michelson,7.20,-120.70,123.0
Milankovic,77.20,168.80,101.0
Milichius,10.00,-30.20,12.0
Miller,-39.30,0.80,61.0
Millikan,46.80,121.50,98.0
Mills,8.60,156.00,32.0
Milne,-31.40,112.20,272.0
Mineur,25.00,-161.30,73.0
Minkowski,-56.50,-146.00,113.0
Minnaert,-67.80,179.60,125.0
Mitchell,49.70,20.20,30.0
Mitra,18.00,-154.70,92.0
Möbius,15.80,101.20,50.0
Mohoróvicic,-19.00,-165.00,51.0
Moigno,66.40,28.90,36.0
Moiseev,9.50,103.30,59.0
Moissan,4.80,137.40,21.0
Moltke,-0.60,24.20,6.0
Monge,-19.20,47.60,36.0
Monira,-12.60,-1.70,2.0
Montanari,-45.80,-20.60,76.0
Montgolfier,47.30,-159.80,88.0
Moore,37.40,-177.50,54.0
Moretus,-70.60,-5.80,111.0
Morley,-2.80,64.60,14.0
Morozov,5.00,127.40,42.0
Morse,22.10,-175.10,77.0
Moseley,20.90,-90.10,90.0
Mösting,-0.70,-5.90,24.0
Mouchez,78.30,-26.60,81.0
Moulton,-61.10,97.20,49.0
Müller,-7.60,2.10,22.0
Murakami,-23.30,-140.50,45.0
Murchison,5.10,-0.10,57.0
Mutus,-63.60,30.10,77.0
Nagaoka,19.40,154.00,46.0
Nansen,80.90,95.30,104.0
Naonobu,-4.60,57.80,34.0
Nasireddin,-41.00,0.20,52.0
Nasmyth,-50.50,-56.20,76.0
Nassau,-24.90,177.40,76.0
Natasha,20.00,-31.30,12.0
Naumann,35.40,-62.00,9.0
Neander,-31.30,39.90,50.0
Nearch,-58.50,39.10,75.0
Necho,-5.00,123.10,30.0
Neison,68.30,25.10,53.0
Neper,8.50,84.60,137.0
Nernst,35.30,-94.80,116.0
Neujmin,-27.00,125.00,101.0
Neumayer,-71.10,70.70,76.0
Newcomb,29.90,43.80,41.0
Newton,-76.70,-16.90,78.0
Nicholson,-26.20,-85.10,38.0
Nicolai,-42.40,25.90,42.0
Nicollet,-21.90,-12.50,15.0
Nielsen,31.80,-51.80,9.0
Niépce,72.70,-119.10,57.0
Nijland,33.00,134.10,35.0
Nikolaev,35.20,151.30,41.0
Nishina,-44.60,-170.40,65.0
Nobel,15.00,-101.30,48.0
Nobile,-85.20,53.50,73.0
Nobili,0.20,75.90,42.0
Nöggerath,-48.80,-45.70,30.0
Nonius,-34.80,3.80,69.0
Norman,-11.80,-30.40,10.0
Nöther (Noether),66.60,-113.50,67.0
Numerov,-70.70,-160.70,113.0
Nunn,4.60,91.10,19.0
Nüsl,32.30,167.60,61.0
Obruchev,-38.90,162.10,71.0
O'Day,-30.60,157.50,71.0
Oenopides,57.00,-64.10,67.0
Oersted,43.10,47.20,42.0
Ohm,18.40,-113.50,64.0
Oken,-43.70,75.90,71.0
Olbers,7.40,-75.90,74.0
Olcott,20.60,117.80,81.0
Olivier,59.10,138.50,69.0
Omar Khayyam,58.00,-102.10,70.0
Onizuka,-36.20,-148.90,29.0
Opelt,-16.30,-17.50,48.0
Oppenheimer,-35.20,-166.30,208.0
Oppolzer,-1.50,-0.50,40.0
Oresme,-42.40,169.20,76.0
Orlov,-25.70,-175.00,81.0
Orontius,-40.60,-4.60,105.0
Osama,18.60,5.20,0.0
Osiris,18.60,27.60,1.0
Osman,-11.00,-6.20,2.0
Ostwald,10.40,121.90,104.0
Palisa,-9.40,-7.20,33.0
Palitzsch,-28.00,64.50,41.0
Pallas,5.50,-1.60,46.0
Palmieri,-28.60,-47.70,40.0
Paneth,63.00,-94.80,65.0
Pannekoek,-4.20,140.50,71.0
Papaleksi,10.20,164.00,97.0
Paracelsus,-23.00,163.10,83.0
Paraskevopoulos,50.40,-149.90,94.0
Parenago,25.90,-108.50,93.0
Parkhurst,-33.40,103.60,96.0
Parrot,-14.50,3.30,70.0
Parry,-7.90,-15.80,47.0
Parsons,37.30,-171.20,40.0
Pascal,74.60,-70.30,115.0
Paschen,-13.50,-139.80,124.0
Pasteur,-11.90,104.60,224.0
Patricia,25.00,0.30,5.0
Patsaev,-16.70,133.40,55.0
Pauli,-44.50,136.40,84.0
Pavlov,-28.80,142.50,148.0
Pawsey,44.50,145.00,60.0
Peary,88.60,33.00,73.0
Pease,12.50,-106.10,38.0
Peek,2.60,86.90,12.0
Peirce,18.30,53.50,18.0
Peirescius,-46.50,67.60,61.0
Pentland,-64.60,11.50,56.0
Perel'man,-24.00,106.00,46.0
Perepelkin,-10.00,129.00,97.0
Perkin,47.20,-175.90,62.0
Perrine,42.50,-127.80,86.0
Petavius,-25.10,60.40,188.0
Petermann,74.20,66.30,73.0
Peters,68.10,29.50,15.0
Petit,2.30,63.50,5.0
Petrie,45.30,108.40,33.0
Petropavlovskiy,37.20,-114.80,63.0
Petrov,-61.40,88.00,49.0
Pettit,-27.50,-86.60,35.0
Petzval,-62.70,-110.40,90.0
Phillips,-26.60,75.30,122.0
Philolaus,72.10,-32.40,70.0
Phocylides,-52.70,-57.00,121.0
Piazzi,-36.60,-67.90,134.0
Piazzi Smyth,41.90,-3.20,13.0
Picard,14.60,54.70,22.0
Piccolomini,-29.70,32.20,87.0
Pickering,-2.90,7.00,15.0
Pictet,-43.60,-7.40,62.0
Pikel'ner,-47.90,123.30,47.0
Pilâtre,-60.20,-86.90,50.0
Pingré,-58.70,-73.70,88.0
Pirquet,-20.30,139.60,65.0
Pitatus,-29.90,-13.50,106.0
Pitiscus,-50.40,30.90,82.0
Pizzetti,-34.90,118.80,44.0
Plana,42.20,28.20,44.0
Planck,-57.90,136.80,314.0
Planté,-10.20,163.30,37.0
Plaskett,82.10,174.30,109.0
Plato,51.60,-9.40,109.0
Playfair,-23.50,8.40,47.0
Plinius,15.40,23.70,43.0
Plummer,-25.00,-155.00,73.0
Plutarch,24.10,79.00,68.0
Poczobutt,57.10,-98.80,195.0
Pogson,-42.20,110.50,50.0
Poincaré,-56.70,163.60,319.0
Poinsot,79.50,-145.70,68.0
Poisson,-30.40,10.60,42.0
Polybius,-22.40,25.60,41.0
Polzunov,25.30,114.60,67.0
Pomortsev,0.70,66.90,23.0
Poncelet,75.80,-54.10,69.0
Pons,-25.30,21.50,41.0
Pontanus,-28.40,14.40,57.0
Pontécoulant,-58.70,66.00,91.0
Popov,17.20,99.70,65.0
Porter,-56.10,-10.10,51.0
Posidonius,31.80,29.90,95.0
Poynting,18.10,-133.40,128.0
Prager,-3.90,130.50,60.0
Prandtl,-60.10,141.80,91.0
Priestley,-57.30,108.40,52.0
Prinz,25.50,-44.10,46.0
Priscilla,0.00,0.00,0.0
Proclus,16.10,46.80,28.0
Proctor,-46.40,-5.10,52.0
Protagoras,56.00,7.30,21.0
Ptolemaeus,-9.30,-1.90,164.0
Puiseux,-27.80,-39.00,24.0
Pupin,23.80,-11.00,2.0
Purbach,-25.50,-2.30,115.0
Purkyne,-1.60,94.90,48.0
Pythagoras,63.50,-63.00,142.0
Pytheas,20.50,-20.60,20.0
Quetelet,43.10,-134.90,55.0
Rabbi Levi,-34.70,23.60,81.0
Racah,-13.80,-179.80,63.0
Raimond,14.60,-159.30,70.0
Raman,27.00,-55.10,10.0
Ramsay,-40.20,144.50,81.0
Ramsden,0.00,0.00,24.0
Rankine,-3.90,71.50,8.0
Raspletin,-22.50,151.80,48.0
Ravi,-22.50,151.80,48.0
Rayet,44.70,114.50,27.0
Rayleigh,29.30,89.60,114.0
Razumov,39.10,-114.30,70.0
Recht,9.80,124.00,20.0
Regiomontanus,-28.30,-1.00,108.0
Regnault,54.10,-88.00,46.0
Reichenbach,-30.30,48.00,71.0
Reimarus,-47.70,60.30,48.0
Reiner,7.00,-54.90,29.0
Reinhold,3.30,-22.80,42.0
Repsold,51.30,-78.60,109.0
Resnik,-38.80,-150.10,20.0
Respighi,2.80,71.90,18.0
Réaumur,-2.40,0.70,52.0
Rhaeticus,0.00,4.90,45.0
Rheita,-37.10,47.20,70.0
Riccioli,-3.30,-74.60,139.0
Riccius,-36.90,26.50,71.0
Ricco,75.60,176.30,65.0
Richards,7.70,140.10,16.0
Richardson,31.10,100.50,141.0
Riedel,-48.90,-139.60,0.0
Riemann,38.90,86.80,163.0
Ritchey,-11.10,8.50,24.0
Rittenhouse,-74.50,106.50,26.0
Ritter,2.00,19.20,29.0
Ritz,-15.10,92.20,51.0
Robert,19.00,27.40,1.0
Roberts,71.10,-174.50,89.0
Robertson,21.80,-105.20,88.0
Robinson,59.00,-45.90,24.0
Rocca,-12.70,-72.80,89.0
Rocco,28.90,-45.00,4.0
Roche,-42.30,136.50,160.0
Romeo,7.50,122.60,8.0
Römer,25.40,36.40,39.0
Röntgen,33.00,-91.40,126.0
Rosa,20.30,-32.30,1.0
Rosenberger,-55.40,43.10,95.0
Ross,11.70,21.70,24.0
Rosse,-17.90,35.00,11.0
Rosseland,-41.00,131.00,75.0
Rost,-56.40,-33.70,48.0
Rothmann,-30.80,27.70,42.0
Rowland,57.40,-162.50,171.0
Rozhdestvenskiy,85.20,-155.40,177.0
Rumford,-28.80,-169.80,61.0
Runge,-2.50,86.70,38.0
Russell,26.50,-75.40,103.0
Ruth,28.70,-45.10,3.0
Rutherford,10.70,137.00,13.0
Rutherfurd,-60.90,-12.10,48.0
Rydberg,-46.50,-96.30,49.0
Rynin,47.00,-103.50,75.0
Sabatier,13.20,79.00,10.0
Sabine,1.40,20.10,30.0
Sacrobosco,-23.70,16.70,98.0
Saenger,4.30,102.40,75.0
Safarík,10.60,176.90,27.0
Saha,-1.60,102.70,99.0
Samir,28.50,-34.30,2.0
Sampson,29.70,-16.50,1.0
Sanford,32.60,-138.90,55.0
Santbech,-20.90,44.00,64.0
Santos-Dumont,27.70,4.80,8.0
Sarabhai,24.70,21.00,7.0
Sarton,49.30,-121.10,69.0
Sasserides,-39.10,-9.30,90.0
Saunder,-4.20,8.80,44.0
Saussure,-43.40,-3.80,54.0
Scaliger,-27.10,108.90,84.0
Schaeberle,-26.20,117.20,62.0
Scheele,-9.40,-37.80,4.0
Scheiner,-60.50,-27.50,110.0
Schiaparelli,23.40,-58.80,24.0
Schickard,-44.30,-55.30,206.0
Schiller,-51.90,-39.00,180.0
Schjellerup,69.70,157.10,62.0
Schlesinger,47.40,-138.60,97.0
Schliemann,-2.10,155.20,80.0
Schlüter,-5.90,-83.30,89.0
Schmidt,1.00,18.80,11.0
Schneller,41.80,-163.60,54.0
Schomberger,-76.70,24.90,85.0
Schönfeld,44.80,-98.10,25.0
Schorr,-19.50,89.70,53.0
Schrödinger,-75.00,132.40,312.0
Schröter,2.60,-7.00,35.0
Schubert,2.80,81.00,54.0
Schumacher,42.40,60.70,60.0
Schuster,4.20,146.50,108.0
Schwabe,65.10,45.60,25.0
Schwarzschild,70.10,121.20,212.0
Scobee,-31.10,-148.90,40.0
Scoresby,77.70,14.10,55.0
Scott,-82.10,48.50,103.0
Seares,73.50,145.80,110.0
Secchi,2.40,43.50,22.0
Sechenov,-7.10,-142.60,62.0
Seeliger,-2.20,3.00,8.0
Segers,47.10,127.70,17.0
Segner,-58.90,-48.30,67.0
Seidel,-32.80,152.20,62.0
Seleucus,21.00,-66.60,43.0
Seneca,26.60,80.20,46.0
Seyfert,29.10,114.60,110.0
Shackleton,-89.90,0.00,19.0
Shahinaz,7.50,122.40,15.0
Shaler,-32.90,-85.20,48.0
Shapley,9.40,56.90,23.0
Sharonov,12.40,173.30,74.0
Sharp,45.70,-40.20,39.0
Shatalov,24.30,141.50,21.0
Shayn,32.60,172.50,93.0
Sheepshanks,59.20,16.90,25.0
Sherrington,-11.10,118.00,18.0
Shi Shen,76.00,104.10,43.0
Shirakatsi,-12.10,128.60,51.0
Short,-74.60,-7.30,70.0
Shternberg (Sternberg),19.50,-116.30,70.0
Shuckburgh,42.60,52.80,38.0
Shulejkin,-27.10,-92.50,15.0
Siedentopf,22.00,135.50,61.0
Sierpinski,-27.20,154.50,69.0
Sikorsky,-66.10,103.20,98.0
Silberschlag,6.20,12.50,13.0
Simpelius,-73.00,15.20,70.0
Sinas,8.80,31.60,11.0
Sirsalis,-12.50,-60.40,42.0
Sisakyan,41.20,109.00,34.0
Sita,4.60,120.80,2.0
Sklodowska,-18.20,95.50,127.0
Slipher,49.50,160.10,69.0
Slocum,-3.00,89.00,13.0
Smith,-31.60,-150.20,34.0
Smithson,2.40,53.60,5.0
Smoluchowski,60.30,-96.80,83.0
Snellius,-29.30,55.70,82.0
Sniadecki,-22.50,-168.90,43.0
Soddy,0.40,121.80,42.0
Somerville,-8.30,64.90,15.0
Sommerfeld,65.20,-162.40,169.0
Sömmering,0.10,-7.50,28.0
Soraya,-12.90,-1.60,2.0
Sosigenes,8.70,17.60,17.0
South,58.00,-50.80,104.0
Spallanzani,-46.30,24.70,32.0
Spencer Jones,13.30,165.60,85.0
Spörer,-4.30,-1.80,27.0
Spurr,27.90,-1.20,11.0
St. John,10.20,150.20,68.0
Stadius,10.50,-13.70,69.0
Stark,-25.50,134.60,49.0
Stearns,34.80,162.60,36.0
Stebbins,64.80,-141.80,131.0
Stefan,46.00,-108.30,125.0
Stein,7.20,179.00,33.0
Steinheil,-48.60,46.50,67.0
Steklov,-36.70,-104.90,36.0
Stella,19.90,29.80,36.0
Steno,32.80,161.80,31.0
Sternfeld,-19.60,-141.20,100.0
Stetson,-39.60,-118.30,64.0
Stevinus,-32.50,54.20,74.0
Stewart,2.20,67.00,13.0
Stiborius,-34.40,32.00,43.0
Stöfler,-41.10,6.00,126.0
Stokes,52.50,-88.10,51.0
Stoletov,45.10,-155.20,42.0
Stoney,-55.30,-156.10,45.0
Störmer,57.30,146.30,69.0
Strabo,61.90,54.30,55.0
Stratton,-5.80,164.60,70.0
Street,-46.50,-10.50,57.0
Strömgren,-21.70,-132.40,61.0
Struve,22.40,-77.10,164.0
Subbotin,-29.20,135.30,67.0
Suess,4.40,-47.60,8.0
Sulpicius Gallus,19.60,11.60,12.0
Sumner,37.50,108.70,50.0
Sundman,10.80,-91.60,40.0
Sung-Mei,24.60,11.30,5.0
Susan,-11.00,-6.30,1.0
Swann,52.00,112.70,42.0
Swasey,-5.50,89.70,23.0
Swift,19.30,53.40,10.0
Sylvester,82.70,-79.60,58.0
Szilard,34.00,105.70,122.0
T. Mayer,15.60,-29.10,33.0
Tacchini,4.90,85.80,40.0
Tacitus,-16.20,19.00,39.0
Tacquet,16.60,19.20,7.0
Taizo,16.60,19.20,6.0
Talbot,-2.50,85.30,11.0
Tamm,-4.40,146.40,38.0
Tannerus,-56.40,22.00,28.0
Taruntius,5.60,46.50,56.0
Taylor,-5.30,16.70,42.0
Tebbutt,9.60,53.60,31.0
Teisserenc,32.20,-135.90,62.0
Tempel,3.90,11.90,45.0
Ten Bruggencate,-9.50,134.40,59.0
Tereshkova,28.40,144.30,31.0
Tesla,38.50,124.70,43.0
Thales,61.80,50.30,31.0
Theaetetus,37.00,6.00,24.0
Thebit,-22.00,-4.00,56.0
Theiler,13.40,83.30,7.0
Theon Junior,-2.30,15.80,17.0
Theon Senior,-0.80,15.40,18.0
Theophilus,-11.40,26.40,110.0
Theophrastus,17.50,39.00,9.0
Thiel,40.70,-134.50,32.0
Thiessen,75.40,-169.00,66.0
Thomson,-32.70,166.20,117.0
Tikhomirov,25.20,162.00,65.0
Tikhov,62.30,171.70,83.0
Tiling,-53.10,-132.60,38.0
Timaeus,62.80,-0.50,32.0
Timiryazev,-5.50,-147.00,53.0
Timocharis,26.70,-13.10,33.0
Tiselius,7.00,176.50,53.0
Tisserand,21.40,48.20,36.0
Titius,-26.80,100.70,73.0
Titov,28.60,150.50,31.0
Tolansky,-9.50,-16.00,13.0
Torricelli,-4.60,28.50,22.0
Toscanelli,27.40,-47.50,7.0
Townley,3.40,63.30,18.0
Tralles,28.40,52.80,43.0
Triesnecker,4.20,3.60,26.0
Trouvelot,49.30,5.80,9.0
Trumpler,29.30,167.10,77.0
Tsander,6.20,-149.30,181.0
Tseraskiy (Cerasky),-49.00,141.60,56.0
Tsinger,56.70,175.60,44.0
Tsiolkovskiy,-21.20,128.90,185.0
Tsu Chung-Chi,17.30,145.10,28.0
Tucker,-5.60,88.20,7.0
Turner,-1.40,-13.20,11.0
Tycho,-43.40,-11.10,102.0
Tyndall,-34.90,117.00,18.0
Ukert,7.80,1.40,23.0
Ulugh Beigh,32.70,-81.90,54.0
Urey,27.90,87.40,38.0
Väisälä,25.90,-47.80,8.0
Valier,6.80,174.50,67.0
van Albada,9.40,64.30,21.0
Van Biesbroeck,28.70,-45.60,9.0
Van de Graaff,-27.40,172.20,233.0
Van del Waals,-43.90,119.90,104.0
van den Bergh,31.30,-159.10,42.0
van den Bos,-5.30,146.00,22.0
van Gent,15.40,160.40,43.0
Van Maanen,35.70,128.00,60.0
van Rhijn,52.60,146.40,46.0
Van Vleck,-1.90,78.30,31.0
Van Wijk,-62.80,118.80,32.0
van't Hoff,62.10,-131.80,92.0
Vasco da Gama,13.60,-83.90,83.0
Vashakidze,43.60,93.30,44.0
Vavilov,-0.80,-137.90,98.0
Vega,-45.40,63.40,75.0
Vendelinus,-16.40,61.60,131.0
Vening Meinesz,-0.30,162.60,87.0
Ventris,-4.90,158.00,95.0
Vera,26.30,-43.70,2.0
Vernadskiy,23.20,130.50,91.0
Verne,24.90,-25.30,2.0
Vertregt,-19.80,171.10,187.0
Very,25.60,25.30,5.0
Vesalius,-3.10,114.50,61.0
Vestine,33.90,93.90,96.0
Vetchinkin,10.20,131.30,98.0
Vieta,-29.20,-56.30,87.0
Vil'ev,-6.10,144.40,45.0
Virchow,9.80,83.70,16.0
Virtanen,15.50,176.70,44.0
Vitello,-30.40,-37.50,42.0
Vitruvius,17.60,31.30,29.0
Viviani,5.20,117.10,26.0
Vlacq,-53.30,38.80,89.0
Vogel,-15.10,5.90,26.0
Volkov,-13.60,131.70,40.0
Volta,53.90,-84.40,123.0
Volterra,56.80,132.20,52.0
von Behring,-7.80,71.80,38.0
von Békésy,51.90,126.80,96.0
von Braun,41.10,-78.00,60.0
von der Pahlen,-24.80,-132.70,56.0
Von Kármán,-44.80,175.90,180.0
Von Neumann,40.40,153.20,78.0
von Zeipel,42.60,-141.60,83.0
Voskresenskiy,28.00,-88.10,49.0
W. Bond,65.40,-4.50,156.0
Walker,-26.00,-162.20,32.0
Wallace,20.30,-8.70,26.0
Wallach,4.90,32.30,6.0
Walter,28.00,-33.80,1.0
Walter (Walther),-33.10,1.00,128.0
Wan-Hoo,-9.80,-138.80,52.0
Wargentin,-49.60,-60.20,84.0
Warner,-4.00,87.30,35.0
Waterman,-25.90,128.00,76.0
Watson,-62.60,-124.50,62.0
Watt,-49.50,48.60,66.0
Watts,8.90,46.30,15.0
Webb,-0.90,60.00,21.0
Weber,50.40,-123.40,42.0
Wegener,45.20,-113.30,88.0
Weierstrass,-1.30,77.20,33.0
Weigel,-58.20,-38.80,35.0
Weinek,-27.50,37.00,32.0
Weiss,-31.80,-19.50,66.0
Werner,-28.00,3.30,70.0
Wexler,-69.10,90.20,51.0
Weyl,17.50,-120.20,108.0
Whewell,4.20,13.70,13.0
White,-44.60,-158.30,39.0
Wichmann,-7.50,-38.10,10.0
Widmanstätten,-6.10,85.50,46.0
Wiechert,-84.50,165.00,41.0
Wiener,40.80,146.60,120.0
Wildt,9.00,75.80,11.0
Wilhelm,-43.40,-20.40,106.0
Wilkins,-29.40,19.60,57.0
Williams,42.00,37.20,36.0
Wilsing,-21.50,-155.20,73.0
Wilson,-69.20,-42.40,69.0
Winkler,42.20,-179.00,22.0
Winlock,35.60,-105.60,64.0
Winthrop,-10.70,-44.40,17.0
Wöhler,-38.20,31.40,27.0
Wolf,-22.70,-16.60,25.0
Wollaston,30.60,-46.90,10.0
Woltjer,45.20,-159.60,46.0
Wood,43.00,-120.80,78.0
Wright,-31.60,-86.60,39.0
Wróblewski,-24.00,152.80,21.0
Wrottesley,-23.90,56.80,57.0
Wurzelbauer,-33.90,-15.90,88.0
Wyld,-1.40,98.10,93.0
Xenophanes,57.50,-82.00,125.0
Xenophon,-22.80,122.10,25.0
Yablochkov,60.90,128.30,99.0
Yakovkin,-54.50,-78.80,37.0
Yamamoto,58.10,160.90,76.0
Yangel',17.00,4.70,8.0
Yerkes,14.60,51.70,36.0
Yoshi,24.60,11.00,1.0
Young,-41.50,50.90,71.0
Zach,-60.90,5.30,70.0
Zagut,-32.00,22.10,84.0
Zähringer,5.60,40.20,11.0
Zanstra,2.90,124.70,42.0
Zasyadko,3.90,94.20,11.0
Zeeman,-75.20,-133.60,190.0
Zelinskiy,-28.90,166.80,53.0
Zeno,45.20,72.90,65.0
Zernike,18.40,168.20,48.0
Zhiritskiy,-24.80,120.30,35.0
Zhukovskiy,7.80,-167.00,81.0
Zinner,26.60,-58.80,4.0
Zöllner,-8.00,18.90,47.0
Zsigmondy,59.70,-104.70,65.0
Zucchius,-61.40,-50.30,64.0
Zupus,-17.20,-52.30,38.0
Zwicky,-15.40,168.10,150.0
